,City,Cloudiness,Country,Date,Humidity,Lat,Lng,Max Temp,Wind Speed
0,Iquique,75,CL,1571019730,72,-20.22,-70.14,64.4,3.36
1,Lamu,0,CN,1571019730,60,35.77,102.37,44.55,4.11
2,Qazvin,30,IR,1571019731,93,36.28,50.01,46.4,2.24
3,Saskylakh,78,RU,1571019731,94,71.97,114.09,19.08,3.27
4,Nanortalik,0,GL,1571019506,86,60.14,-45.24,34.09,14.39
5,Corn Island,99,NI,1571019731,70,12.17,-83.04,82.47,5.21
6,Lata,0,IN,1571019471,29,30.78,78.62,39.15,2.16
7,Lakes Entrance,37,AU,1571019732,40,-37.88,147.99,75.99,5.99
8,Kvarkeno,100,RU,1571019732,93,52.08,59.73,47.64,10.68
9,Longyearbyen,37,NO,1571019733,73,78.22,15.63,19.4,1.12
10,Dire Dawa,36,ET,1571019733,84,9.59,41.86,56.08,1.1
11,Ilulissat,0,GL,1571019510,52,69.22,-51.1,19.4,8.05
12,Alugan,1,PH,1571019733,70,12.22,125.48,82.45,3.27
13,Luderitz,0,NA,1571019734,76,-26.65,15.16,57.2,9.17
14,Issoire,0,FR,1571019734,63,45.54,3.25,64.4,12.75
15,Buraydah,10,SA,1571019734,46,26.33,43.97,71.6,3.36
16,Kabo,85,CF,1571019735,94,7.69,18.62,69.89,1.85
17,Guerrero Negro,0,MX,1571019735,67,27.97,-114.04,68.47,13.52
18,Veraval,75,FR,1571019735,100,49.65,0.71,55.99,8.05
19,Barrow,95,AR,1571019736,78,-38.31,-60.23,38.97,7.76
20,Bilibino,100,RU,1571019736,84,68.06,166.44,23.65,4.51
21,Isangel,40,VU,1571019590,74,-19.55,169.27,82.4,11.41
22,Kapaa,75,US,1571019432,83,22.08,-159.32,86.0,9.17
23,Celestun,30,MX,1571019528,78,20.87,-90.4,82.13,19.89
24,Starodub,38,RU,1571019737,93,52.58,32.76,52.32,5.42
25,Moose Jaw,20,CA,1571019737,38,50.4,-105.54,39.2,2.24
26,Flinders,0,AU,1571019738,46,-34.58,150.85,77.0,6.93
27,Teliu,100,RO,1571019738,84,45.7,25.86,43.0,2.66
28,Byron Bay,40,AU,1571019586,56,-28.65,153.62,80.01,12.75
29,Valle de Allende,100,MX,1571019738,96,26.94,-105.39,59.76,5.43
30,Bar-le-Duc,5,FR,1571019739,77,48.77,5.16,64.4,12.75
31,San Policarpo,1,PH,1571019471,70,12.18,125.51,82.45,3.27
32,Port Elizabeth,90,US,1571019469,93,39.31,-74.98,64.99,4.7
33,Dikson,100,RU,1571019740,99,73.51,80.55,30.87,4.53
34,Anadyr,90,RU,1571019740,93,64.73,177.51,37.4,24.61
35,Beckley,1,US,1571019740,87,37.78,-81.19,53.6,3.89
36,Kaeo,100,NZ,1571019451,100,-35.1,173.78,55.99,36.5
37,Luanda,75,AO,1571019741,88,-8.83,13.24,73.4,4.7
38,Laguna,75,BZ,1571019741,100,16.17,-88.94,75.2,9.17
39,Sorland,43,NO,1571019741,54,67.67,12.69,43.16,3.74
40,Sumbawanga,74,TZ,1571019741,70,-7.95,31.62,61.2,6.51
41,Aasiaat,49,GL,1571019742,55,68.71,-52.87,19.45,5.55
42,Avera,40,US,1571019742,100,33.19,-82.53,73.4,2.53
43,Dingle,70,PH,1571019554,74,11.0,122.67,83.95,7.57
44,Kyren,0,RU,1571019743,28,51.68,102.13,36.86,3.7
45,Coquimbo,75,CL,1571019534,82,-29.95,-71.34,55.4,12.75
46,Lavrentiya,100,RU,1571019743,80,65.58,-170.99,35.44,13.76
47,Chicama,90,PE,1571019497,82,-7.84,-79.15,62.6,6.93
48,Norrtalje,75,SE,1571019744,93,59.76,18.7,51.01,8.05
49,Antofagasta,10,CL,1571019744,67,-23.65,-70.4,62.6,14.99
50,Bud,0,NO,1571019461,74,62.91,6.91,35.6,8.05
51,Taltal,75,CL,1571019744,89,-25.41,-70.49,51.67,5.99
52,Provideniya,90,RU,1571019529,88,64.42,-173.23,35.6,11.18
53,Clyde River,90,CA,1571019491,85,70.47,-68.59,24.8,3.36
54,Whyalla,0,AU,1571019745,59,-33.04,137.58,64.4,14.99
55,Bull Savanna,100,JM,1571019745,93,17.89,-77.59,72.14,3.44
56,Havoysund,40,NO,1571019542,92,71.0,24.66,28.4,5.82
57,Makakilo City,75,US,1571019588,74,21.35,-158.09,86.0,5.82
58,Riyadh,0,SA,1571019609,57,24.63,46.72,75.2,2.24
59,Zhengjiatun,0,CN,1571019746,24,43.51,123.51,43.86,12.59
60,Tsabong,0,BW,1571019747,31,-26.02,22.4,67.12,4.7
61,Baghdad,0,IQ,1571019747,46,33.3,44.38,71.6,6.93
62,Eureka,1,US,1571019467,93,40.8,-124.16,54.0,8.05
63,Chinna Salem,90,IN,1571019748,70,11.64,78.88,82.8,3.7
64,Alindao,63,CF,1571019748,96,5.04,21.21,68.25,2.4
65,Dandong,0,CN,1571019559,28,40.12,124.37,50.18,18.44
66,Musoma,75,TZ,1571019748,94,-1.5,33.81,68.0,3.24
67,Puerto Montt,0,CL,1571019749,66,-41.47,-72.94,50.0,6.93
68,Liverpool,100,GB,1571019568,100,53.41,-2.98,48.99,4.7
69,Tuatapere,100,NZ,1571019749,89,-46.13,167.69,54.43,3.31
70,Navsari,20,IN,1571019750,73,20.95,72.93,77.0,7.01
71,Kavieng,100,PG,1571019465,69,-2.57,150.8,83.7,4.35
72,Hithadhoo,100,MV,1571019450,73,-0.6,73.08,82.9,5.01
73,Hearst,100,CA,1571019750,96,49.69,-83.67,34.9,3.93
74,Aklavik,75,CA,1571019751,86,68.22,-135.01,26.6,4.7
75,Ribeira Grande,100,PT,1571019467,78,38.52,-28.7,61.52,11.59
76,Thompson,90,CA,1571019453,100,55.74,-97.86,33.8,6.93
77,Mahebourg,75,MU,1571019503,88,-20.41,57.7,70.0,3.36
78,Elizabeth City,90,US,1571019751,94,36.3,-76.22,69.8,3.36
79,Tuktoyaktuk,40,CA,1571019448,68,69.44,-133.03,30.2,10.29
80,Martapura,75,ID,1571019547,55,-3.41,114.85,87.8,5.82
81,Ambon,90,FR,1571019583,100,47.55,-2.56,57.2,4.7
82,Juana Diaz,40,PR,1571019752,74,18.05,-66.51,82.4,4.02
83,Rantepao,18,ID,1571019488,62,-2.97,119.9,81.36,3.31
84,Hami,0,CN,1571019560,29,42.84,93.51,57.78,3.58
85,Turbat,0,PK,1571019753,59,26.0,63.05,80.78,2.44
86,Key West,90,US,1571019753,92,47.93,-96.78,35.6,9.17
87,Union,1,US,1571019754,88,34.72,-81.62,66.99,6.93
88,Davila,20,PH,1571019754,62,18.47,120.58,87.8,13.87
89,Kurchum,0,KZ,1571019754,45,48.57,83.65,56.48,8.16
90,San Jose,100,HN,1571019755,96,14.25,-87.96,64.06,4.92
91,Yinchuan,100,CN,1571019755,31,38.48,106.21,36.0,3.0
92,Codrington,40,AU,1571019538,39,-28.95,153.24,80.01,5.82
93,Kilindoni,3,TZ,1571019756,78,-7.91,39.67,78.46,7.74
94,Avarua,0,CK,1571019441,61,-21.21,-159.78,77.0,14.99
95,Kruisfontein,0,ZA,1571019756,91,-34.0,24.73,53.98,7.56
96,Sinnamary,89,GF,1571019522,82,5.38,-52.96,81.25,16.36
97,Tiksi,100,RU,1571019472,90,71.64,128.87,18.0,5.15
98,Tura,86,RU,1571019520,92,64.27,100.22,27.27,4.29
99,Upernavik,0,GL,1571019454,47,72.79,-56.15,18.73,10.7
100,Haileybury,90,CA,1571019757,100,47.44,-79.64,41.0,8.05
101,Sur,0,OM,1571019477,65,22.57,59.53,78.42,2.7
102,Mackay,90,CA,1571019460,100,53.65,-115.58,39.2,3.36
103,Salinas,1,US,1571019758,82,36.67,-121.66,64.0,8.05
104,Lebu,20,ET,1571019514,87,8.96,38.73,51.8,4.7
105,Pinheiro Machado,100,BR,1571019759,4,-31.58,-53.38,53.01,25.01
106,Broken Hill,0,AU,1571019589,38,-31.97,141.45,75.2,19.46
107,Komsomolskiy,100,RU,1571019588,89,67.55,63.78,31.89,6.93
108,Alekseyevka,0,RU,1571019759,88,53.25,50.49,43.86,13.65
109,Council Bluffs,1,US,1571019760,67,41.26,-95.86,50.0,4.7
110,Jalu,65,LY,1571019600,48,29.03,21.55,73.83,1.42
111,Pisco,90,PE,1571019760,72,-13.71,-76.2,64.4,10.29
112,Tongren,100,CN,1571019761,87,27.72,109.18,61.9,7.94
113,Port Hardy,40,CA,1571019761,76,50.7,-127.42,51.8,5.82
114,Los Llanos de Aridane,75,ES,1571019503,93,28.66,-17.92,66.2,13.87
115,Cape Town,0,ZA,1571019762,87,-33.93,18.42,59.0,9.17
116,Sola,4,TZ,1571019762,68,-3.17,33.8,67.75,6.47
117,Rio Grande,100,BR,1571019762,76,-32.03,-52.1,62.74,21.94
118,Esso,78,RU,1571019763,93,55.93,158.7,22.37,3.75
119,Gamboma,74,CG,1571019763,85,-1.87,15.88,72.88,2.95
120,Blairmore,40,CA,1571019763,60,49.61,-114.44,42.8,5.84
121,Leon,1,US,1571019763,75,40.74,-93.75,45.0,5.82
122,Arona,75,IT,1571019764,93,45.76,8.56,60.01,3.36
123,Moerai,52,PF,1571019764,73,-22.43,-151.33,70.88,14.11
124,Airai,14,TL,1571019765,13,-8.93,125.41,87.78,9.3
125,Tessalit,68,ML,1571019766,19,20.2,1.01,88.27,4.78
126,Matongo,6,BI,1571019766,88,-3.07,29.61,57.85,3.48
127,Te Anau,100,NZ,1571019766,80,-45.41,167.72,49.78,1.14
128,Maamba,0,ZM,1571019767,34,-17.36,27.22,68.05,2.13
129,Mount Gambier,40,AU,1571019542,67,-37.83,140.78,62.6,13.87
130,Rabaul,100,PG,1571019767,75,-4.2,152.17,81.48,4.24
131,Pasighat,0,IN,1571019767,64,28.06,95.33,78.78,1.76
132,Hasaki,75,JP,1571019477,77,35.73,140.83,68.0,11.41
133,Palmer,75,AU,1571019585,67,-34.85,139.16,68.0,10.29
134,Oistins,40,BB,1571019768,83,13.07,-59.53,80.6,14.99
135,Great Yarmouth,100,GB,1571019769,93,52.61,1.73,50.0,2.24
136,Vao,100,EE,1571019592,97,59.1,26.19,41.56,5.34
137,Orangeburg,90,US,1571019769,69,33.49,-80.86,75.2,9.17
138,Omboue,100,GA,1571019593,96,-1.57,9.26,73.8,4.76
139,Nikolskoye,75,RU,1571019770,86,59.7,30.79,42.01,3.01
140,Dezhou,0,CN,1571019770,25,37.45,116.31,57.81,11.94
141,Talnakh,100,RU,1571019511,97,69.49,88.39,27.45,8.24
142,Vila Velha,75,BR,1571019770,74,-3.71,-38.6,80.6,14.99
143,Saint Anthony,1,US,1571019771,36,43.97,-111.68,46.4,4.61
144,Tezu,0,IN,1571019771,52,27.93,96.16,79.2,2.42
145,Altay,0,CN,1571019771,34,47.83,88.13,47.95,3.76
146,Puerto Ayacucho,20,CO,1571019557,83,5.66,-67.63,80.6,1.22
147,Saint George,0,GR,1571019772,93,39.45,22.34,57.2,1.21
148,Bandarbeyla,94,SO,1571019452,77,9.49,50.81,80.65,10.16
149,Huangpi,44,CN,1571019772,57,30.88,114.37,75.2,15.66
150,Islamkot,1,PK,1571019773,31,24.7,70.18,87.15,4.71
151,Marawi,100,PH,1571019487,75,8.0,124.29,84.99,5.01
152,Qaqortoq,0,GL,1571019565,47,60.72,-46.03,35.6,8.05
153,Lebowakgomo,3,ZA,1571019774,77,-24.3,29.54,60.8,13.87
154,Bermejo,98,AR,1571019774,95,-22.73,-64.34,66.2,3.17
155,Taguatinga,93,BR,1571019774,38,-15.83,-48.06,73.4,2.24
156,La Ronge,75,CA,1571019542,53,55.1,-105.3,32.0,2.24
157,Kundla,0,IN,1571019775,50,21.34,71.31,82.58,6.08
158,Anzio,100,IT,1571019775,93,41.45,12.63,63.0,4.7
159,Hovd,8,NO,1571019605,92,63.83,10.7,42.01,6.93
160,Inuvik,75,CA,1571019776,86,68.36,-133.71,26.6,4.7
161,Kedainiai,100,LT,1571019776,100,55.29,23.97,53.6,4.7
162,Half Moon Bay,20,US,1571019490,87,37.46,-122.43,73.99,5.19
163,Tecoanapa,75,MX,1571019530,83,16.99,-99.26,84.2,11.41
164,Cherskiy,100,RU,1571019777,78,68.75,161.3,30.83,1.62
165,Yulara,75,AU,1571019777,8,-25.24,130.99,95.0,12.75
166,Fortuna,1,US,1571019451,93,40.6,-124.16,54.0,8.05
167,Humboldt,94,CA,1571019777,45,52.21,-105.12,35.69,3.18
168,Chihuahua,90,MX,1571019778,100,28.66,-106.08,59.0,2.91
169,Sabzevar,66,IR,1571019778,64,36.21,57.68,51.26,11.5
170,Geraldton,90,CA,1571019607,96,49.72,-86.95,33.8,5.82
171,Adrar,0,DZ,1571019779,36,27.87,-0.29,77.99,8.24
172,Coos Bay,90,US,1571019779,82,43.37,-124.22,57.0,17.22
173,Huron,90,US,1571019779,91,44.36,-98.21,37.4,5.82
174,Nynashamn,100,SE,1571019780,100,58.9,17.95,51.01,4.7
175,Saint-Louis,75,SN,1571019780,88,16.03,-16.5,80.6,2.24
176,Trat,20,TH,1571019780,79,12.25,102.51,84.2,3.36
177,Calvinia,0,ZA,1571019781,41,-31.47,19.78,52.36,3.01
178,San Juan de los Morros,10,VE,1571019781,97,9.91,-67.35,68.09,1.89
179,Chara,0,GR,1571019781,93,39.42,22.43,57.2,1.21
180,Nabire,96,ID,1571019782,64,-3.36,135.5,87.48,3.79
181,Torbay,90,CA,1571019511,93,47.66,-52.73,53.6,9.17
182,Dalvik,100,SE,1571019782,100,57.79,14.13,55.99,6.93
183,Lulea,0,SE,1571019782,86,65.58,22.15,28.4,5.82
184,Bend,40,US,1571019783,58,44.06,-121.32,55.4,9.17
185,Aden,74,YE,1571019783,64,12.79,45.03,81.34,9.54
186,Macapa,40,BR,1571019783,83,0.05,-51.07,82.4,11.41
187,Vestmannaeyjar,65,IS,1571019784,71,63.44,-20.27,44.64,24.09
188,Aborlan,90,PH,1571019784,83,9.44,118.55,82.4,4.7
189,Santa Isabel do Rio Negro,100,BR,1571019784,97,-0.41,-65.02,71.89,1.39
190,Nekrasovskoye,97,RU,1571019784,84,57.68,40.37,47.19,12.83
191,Melbu,0,NO,1571019785,73,68.5,14.83,37.0,7.0
192,Marfino,34,RU,1571019438,93,56.07,37.56,46.0,8.95
193,Non Sang,2,TH,1571019785,62,16.87,102.57,84.2,6.93
194,Nuuk,0,GL,1571019785,58,64.17,-51.74,30.2,18.34
195,Santiago,100,PH,1571019786,78,16.69,121.54,79.86,3.08
196,Garissa,51,KE,1571019786,79,-0.46,39.64,75.6,11.8
197,Borogontsy,99,RU,1571019787,74,62.67,131.17,22.05,7.28
198,Calella,75,ES,1571019787,100,41.62,2.67,71.01,2.24
199,Teguldet,99,RU,1571019787,85,57.31,88.17,45.54,7.69
200,Rossland,100,CA,1571019787,75,49.08,-117.8,44.01,1.5
201,Mayumba,100,GA,1571019788,91,-3.44,10.65,75.74,12.86
202,Chernoyerkovskaya,0,RU,1571019788,100,45.43,37.76,46.4,8.95
203,Bulgan,0,MN,1571019788,26,48.81,103.53,38.03,2.88
204,General Roca,26,AR,1571019789,13,-39.03,-67.58,55.4,11.41
205,Bozova,0,TR,1571019789,17,37.36,38.53,66.2,12.75
206,Taga,19,ID,1571019789,30,-8.61,120.44,88.68,5.89
207,Calamar,54,CO,1571019790,92,1.96,-72.65,72.09,0.91
208,Aswan,76,EG,1571019545,21,24.09,32.9,84.2,8.05
209,Palmeiras de Goias,60,BR,1571019790,39,-16.8,-49.93,77.67,2.29
210,Cap Malheureux,75,MU,1571019790,88,-19.98,57.61,70.0,3.36
211,Marsa Matruh,40,EG,1571019791,78,31.35,27.25,73.4,5.82
212,Turukhansk,95,RU,1571019533,98,65.8,87.96,35.06,5.15
213,Steinbach,90,CA,1571019791,98,49.53,-96.69,35.01,9.17
214,Srednekolymsk,100,RU,1571019602,96,67.46,153.71,28.17,15.72
215,Port Blair,93,IN,1571019595,75,11.67,92.75,83.71,10.73
216,Erdaojiang,0,CN,1571019792,33,41.78,126.03,38.64,8.0
217,Mount Isa,0,AU,1571019528,8,-20.73,139.49,100.4,10.29
218,Kamina,100,CD,1571019793,94,-8.74,25.0,66.24,3.35
219,Cassilandia,100,BR,1571019793,80,-19.11,-51.73,72.03,5.26
220,Batemans Bay,53,AU,1571019793,34,-35.71,150.18,71.01,1.01
221,La Asuncion,100,AR,1571019794,96,-26.05,-65.39,51.53,2.8
222,Kurmanayevka,0,RU,1571019794,92,52.51,52.07,43.36,10.94
223,Vila,75,IT,1571019522,93,45.18,8.4,60.01,3.36
224,Ulaangom,0,MN,1571019794,34,49.98,92.07,46.78,1.64
225,Toyooka,75,JP,1571019795,100,35.55,134.82,68.0,2.24
226,Sao Paulo de Olivenca,100,BR,1571019795,79,-3.38,-68.87,76.41,1.57
227,Houma,100,CN,1571019795,85,35.63,111.36,50.38,9.94
228,Marathon,100,CA,1571019796,73,48.72,-86.38,42.46,12.67
229,Beringovskiy,91,RU,1571019542,84,63.05,179.32,38.57,15.01
230,Neryungri,27,RU,1571019796,66,56.66,124.71,20.95,6.46
231,Xapuri,0,BR,1571019797,82,-10.65,-68.5,73.92,2.03
232,Almaznyy,0,RU,1571019797,85,48.03,40.04,51.55,5.92
233,Monterey,1,US,1571019797,71,36.6,-121.89,60.01,6.93
234,Pavlogradka,100,RU,1571019798,67,54.2,73.56,50.23,11.85
235,Presidente Olegario,55,BR,1571019798,68,-18.42,-46.42,66.0,6.52
236,Nishihara,75,JP,1571019482,87,35.74,139.53,64.99,6.93
237,Dunedin,100,NZ,1571019798,84,-45.87,170.5,52.0,21.0
238,Raha,0,IN,1571019799,79,26.23,92.52,77.77,3.22
239,Vrutky,90,SK,1571019799,100,49.11,18.92,55.0,1.12
240,Eufaula,75,US,1571019799,78,31.89,-85.15,73.4,11.41
241,Lagos,20,NG,1571019800,94,6.46,3.39,77.0,9.07
242,Taoudenni,38,ML,1571019800,29,22.68,-3.98,86.47,8.9
243,Nome,40,US,1571019574,64,30.04,-94.42,75.99,4.7
244,Fort Nelson,90,CA,1571019800,69,58.81,-122.69,35.6,3.36
245,Praia,33,BR,1571019801,41,-20.25,-43.81,75.2,5.82
246,Erenhot,0,CN,1571019801,22,43.65,111.97,38.03,3.91
247,Pueblo Nuevo,40,AR,1571019801,27,-32.93,-68.73,62.6,10.29
248,Berkak,14,NO,1571019802,83,62.83,10.01,28.71,4.62
249,Yara,86,CU,1571019802,95,20.27,-76.95,75.51,5.88
250,Mtsensk,100,RU,1571019802,95,53.28,36.58,47.37,5.23
251,Namatanai,80,PG,1571019593,66,-3.66,152.44,83.98,1.44
252,Selma,66,US,1571019803,82,32.41,-87.02,60.8,4.7
253,Cayenne,98,GF,1571019571,94,4.94,-52.33,75.2,5.75
254,Grand Gaube,75,MU,1571019548,88,-20.01,57.66,70.0,3.36
255,Bougouni,95,ML,1571019803,88,11.42,-7.49,72.28,2.69
256,Kuybyshevo,0,UA,1571019803,34,44.63,33.86,52.0,4.58
257,Tortoli,75,IT,1571019804,94,39.93,9.66,69.8,10.29
258,Shingu,75,JP,1571019508,88,33.72,135.99,71.6,4.7
259,Menzelinsk,92,RU,1571019804,84,55.73,53.11,45.45,16.25
260,Wilmington,90,US,1571019805,87,39.75,-75.55,60.01,5.82
261,Tabou,89,CI,1571019805,95,4.42,-7.36,73.04,2.32
262,Iralaya,100,HN,1571019805,75,15.0,-83.23,83.73,12.65
263,Ballina,100,IE,1571019805,93,54.11,-9.15,46.0,1.01
264,Banja Luka,80,BA,1571019806,100,44.77,17.19,48.2,2.19
265,Alghero,21,IT,1571019806,93,40.56,8.32,62.6,4.7
266,Ojinaga,90,US,1571019806,100,29.56,-104.41,59.0,2.06
267,Yuncheng,73,CN,1571019807,64,35.03,111.0,59.23,11.03
268,Oussouye,96,SN,1571019807,95,12.49,-16.54,74.43,5.01
269,Tomatlan,100,MX,1571019807,98,19.93,-105.25,73.04,0.91
270,Tulun,39,RU,1571019808,43,54.56,100.58,40.68,5.73
271,Channel-Port aux Basques,0,CA,1571019808,88,47.57,-59.14,47.71,10.48
272,Milkovo,0,BG,1571019808,87,41.53,24.68,63.0,2.24
273,Cerro Azul,20,BR,1571019808,64,-24.82,-49.26,75.2,5.82
274,Galle,100,GN,1571019484,96,10.08,-12.83,68.52,2.69
275,Kurilsk,18,RU,1571019809,55,45.23,147.88,47.55,7.55
276,Mehamn,98,NO,1571019809,74,71.03,27.85,32.9,4.1
277,Samarai,40,PG,1571019810,68,-10.62,150.67,79.48,10.08
278,Port Hedland,62,AU,1571019442,17,-20.31,118.58,91.4,8.05
279,Margate,32,AU,1571019444,42,-43.03,147.26,75.99,5.01
280,Leshukonskoye,100,RU,1571019810,94,64.9,45.76,39.67,7.09
281,Berlevag,99,NO,1571019811,65,70.86,29.09,38.23,6.82
282,Smoky Lake,100,CA,1571019811,98,54.11,-112.47,39.99,1.99
283,Santa Fe,90,AR,1571019811,87,-31.62,-60.7,61.0,18.34
284,Dawson Creek,1,CA,1571019811,79,55.76,-120.23,39.2,3.36
285,Iberia,62,PE,1571019812,94,-11.41,-69.49,70.29,2.64
286,Tahoua,0,NE,1571019812,69,14.89,5.26,82.4,2.29
287,Ust-Koksa,0,RU,1571019812,54,50.27,85.62,43.38,6.64
288,Moose Factory,90,CA,1571019813,93,51.26,-80.61,42.8,4.7
289,Luan,0,CH,1571019813,81,46.36,6.98,55.99,4.7
290,Senador Guiomard,20,BR,1571019813,83,-10.15,-67.74,78.8,2.24
291,Mahibadhoo,0,MV,1571019814,69,3.78,72.97,82.56,4.53
292,Vanimo,100,PG,1571019506,82,-2.67,141.3,79.32,10.75
293,Lopandino,71,RU,1571019814,95,52.46,34.82,52.07,5.56
294,Vanavara,100,RU,1571019814,83,60.35,102.28,31.15,8.58
295,Comodoro Rivadavia,0,AR,1571019815,69,-45.87,-67.48,39.2,3.43
296,Tilichiki,43,RU,1571019815,69,60.47,166.1,34.81,4.46
297,Punta Cardon,14,VE,1571019815,80,11.61,-70.22,82.67,23.06
298,Port Macquarie,0,AU,1571019528,56,-31.43,152.91,75.99,12.75
299,Kassala,100,SD,1571019816,71,15.45,36.38,72.95,0.23
300,Balkhash,69,KZ,1571019816,50,46.84,74.98,54.7,12.01
301,Hit,0,IQ,1571019552,37,33.64,42.83,72.54,9.42
302,Magadi,40,IN,1571019817,78,12.96,77.22,82.99,2.24
303,Kahului,20,US,1571019817,48,20.89,-156.47,87.8,23.04
304,Moindou,20,NC,1571019817,51,-21.69,165.68,82.4,13.87
305,Duncan,1,US,1571019818,51,34.5,-97.96,66.2,8.05
306,Esperance,90,AU,1571019555,59,-33.86,121.89,64.4,9.17
307,Paamiut,0,GL,1571019818,52,61.99,-49.67,29.35,14.36
308,Luangwa,0,MZ,1571019819,60,-15.62,30.4,74.98,8.53
309,Belyye Berega,99,RU,1571019819,97,53.21,34.66,53.29,3.88
310,Hambantota,75,LK,1571019554,100,6.12,81.12,77.0,2.24
311,Vostok,0,RU,1571019819,32,46.45,135.83,36.5,12.31
312,Dwarka,20,IN,1571019820,78,28.58,77.04,86.0,3.43
313,Fortuna Foothills,1,US,1571019820,27,32.66,-114.41,81.0,8.05
314,Pachino,65,IT,1571019820,100,36.72,15.09,63.0,2.24
315,Namibe,75,AO,1571019821,88,-15.19,12.15,70.63,4.55
316,Dongsheng,100,CN,1571019821,70,29.72,112.52,67.89,11.0
317,Tunceli,0,TR,1571019821,49,39.11,39.55,46.4,5.82
318,Bowen,75,AU,1571019822,51,-20.01,148.25,84.99,8.05
319,Alta Floresta,67,BR,1571019822,82,-9.87,-56.08,73.56,2.26
320,Ouesso,0,CG,1571019822,83,1.61,16.05,69.51,2.36
321,Cherdyn,100,RU,1571019823,97,60.4,56.48,41.88,4.17
322,Alexandria,0,RO,1571019823,93,43.97,25.33,46.0,4.1
323,Rundu,70,NA,1571019823,53,-17.91,19.77,73.4,2.24
324,Rustenburg,18,ZA,1571019823,29,-25.67,27.24,77.0,2.24
325,Qena,41,EG,1571019824,41,26.16,32.72,77.0,5.25
326,Husavik,100,CA,1571019599,95,50.56,-96.99,35.01,7.0
327,Manadhoo,23,MV,1571019824,70,5.77,73.38,82.33,3.03
328,Gomez Plata,40,CO,1571019825,100,6.68,-75.22,59.0,2.24
329,Pimenteiras,19,BR,1571019825,36,-6.24,-41.42,78.67,6.78
330,Banda Aceh,100,ID,1571019825,70,5.56,95.32,83.97,1.4
331,Tocopilla,0,CL,1571019826,38,-22.09,-70.2,50.05,5.26
332,Siniscola,82,IT,1571019826,93,40.57,9.69,60.8,2.24
333,Maiduguri,0,NG,1571019826,57,11.84,13.15,81.66,9.63
334,Rawson,0,AR,1571019482,65,-43.3,-65.11,46.2,13.05
335,Naraina,0,IN,1571019827,57,26.78,75.2,78.8,7.89
336,Rome,100,IT,1571019520,93,41.89,12.48,63.0,4.7
337,Denpasar,20,ID,1571019827,79,-8.65,115.22,84.2,8.05
338,Baiyin,75,CN,1571019828,70,36.55,104.13,48.2,4.47
339,San Cristobal,99,HN,1571019607,95,14.68,-86.92,66.76,3.13
340,Orange Cove,1,US,1571019828,40,36.62,-119.31,78.8,5.05
341,Port Lincoln,21,AU,1571019526,63,-34.72,135.86,62.8,9.33
342,Camacupa,90,AO,1571019829,84,-12.02,17.48,62.06,3.99
343,Yerbogachen,100,RU,1571019567,93,61.28,108.01,28.09,10.3
344,Zambezi,98,ZM,1571019829,90,-13.55,23.12,66.42,2.55
345,Pyaozerskiy,100,RU,1571019830,94,65.83,31.17,34.83,14.65
346,Pemberton,92,AU,1571019830,62,-34.44,116.03,61.0,5.01
347,Padang,95,ID,1571019830,74,-0.92,100.36,78.67,2.57
348,Victoria Point,20,AU,1571019831,53,-27.58,153.3,81.0,12.75
349,Yar-Sale,100,RU,1571019831,93,66.83,70.83,36.27,8.55
350,Mochalishche,66,RU,1571019831,89,56.33,48.35,43.09,12.71
351,Aykhal,85,RU,1571019832,92,65.95,111.51,18.19,7.34
352,Coolum Beach,86,AU,1571019525,70,-26.53,153.09,73.99,4.0
353,Suntar,100,RU,1571019832,71,62.16,117.65,31.05,9.56
354,Hohhot,0,CN,1571019833,25,40.81,111.65,39.2,4.47
355,Jaisalmer,0,IN,1571019833,23,26.91,70.91,87.42,8.11
356,San Andres,38,PH,1571019833,59,13.32,122.68,85.53,5.61
357,Jumla,43,NP,1571019834,63,29.28,82.18,54.19,1.79
358,Lokosovo,100,RU,1571019834,96,61.13,74.84,44.83,5.93
359,Gizo,22,IL,1571019531,83,31.8,34.94,75.2,5.82
360,Trinidad,14,BO,1571019835,64,-14.83,-64.9,79.45,4.0
361,Richards Bay,78,ZA,1571019835,82,-28.77,32.06,69.13,17.3
362,Sanmenxia,73,CN,1571019836,64,34.77,111.19,59.23,11.03
363,Colares,40,PT,1571019836,93,38.8,-9.45,60.8,8.05
364,Hofn,58,IS,1571019837,66,64.25,-15.21,43.9,4.73
365,Rio Gallegos,0,AR,1571019519,64,-51.62,-69.22,35.6,5.82
366,Simacota,100,CO,1571019838,97,6.44,-73.34,60.93,2.36
367,Kununurra,52,AU,1571019458,41,-15.77,128.74,93.2,6.93
368,Swellendam,0,ZA,1571019838,87,-34.02,20.44,53.6,3.36
369,Verkhoyansk,0,RU,1571019838,76,67.55,133.39,13.23,4.03
370,Bar Harbor,1,US,1571019839,100,44.39,-68.2,54.0,2.89
371,Atar,69,MR,1571019839,47,20.52,-13.05,81.41,14.32
372,Saint-Pierre,5,FR,1571019839,93,48.95,4.24,60.8,3.36
373,Mae Hong Son,75,MM,1571019840,88,19.3,97.96,75.2,3.03
374,Urucara,61,BR,1571019435,60,-2.54,-57.76,79.54,1.8
375,Egvekinot,100,RU,1571019556,98,66.32,-179.17,28.54,9.21
376,Aleksandrov Gay,100,RU,1571019841,84,50.14,48.57,53.2,8.93
377,Sergeyevka,100,KZ,1571019841,76,53.88,67.42,47.07,14.81
378,Shilka,16,RU,1571019841,40,51.85,116.03,37.0,9.92
379,Churapcha,100,RU,1571019842,85,62.0,132.43,18.55,7.63
380,Arkhara,0,RU,1571019842,33,49.42,130.09,36.14,15.19
381,Araruama,0,BR,1571019842,88,-22.87,-42.34,70.99,17.45
382,Port-Cartier,90,CA,1571019843,87,50.03,-66.88,48.2,2.24
383,Katherine,55,AU,1571019843,19,-14.47,132.26,95.0,8.05
384,Kupang,99,ID,1571019843,81,-10.16,123.6,78.19,7.82
385,Muravlenko,100,RU,1571019844,98,63.79,74.5,41.2,11.38
386,Bintulu,75,MY,1571019844,83,3.17,113.03,82.4,5.82
387,Lunenburg,67,CA,1571019845,94,44.38,-64.32,52.0,1.75
388,Inverbervie,81,GB,1571019845,93,56.85,-2.28,46.4,1.12
389,Ruidoso,1,US,1571019845,40,33.33,-105.67,66.99,8.05
390,Kalmar,100,SE,1571019846,93,56.66,16.36,57.99,8.05
391,College,90,US,1571019600,68,64.86,-147.8,30.2,10.29
392,Frederikshavn,83,DK,1571019846,83,57.44,10.53,55.99,14.0
393,Salalah,0,OM,1571019456,64,17.01,54.1,75.2,3.36
394,Lensk,98,RU,1571019847,78,60.71,114.91,26.91,13.69
395,Necochea,0,AR,1571019464,71,-38.55,-58.74,46.99,21.99
396,Solnechnyy,2,RU,1571019847,27,50.72,136.64,34.63,6.55
397,Bambous Virieux,75,MU,1571019847,88,-20.34,57.76,70.0,3.36
398,Puchov,90,SK,1571019848,100,49.12,18.33,57.99,1.12
399,Beidao,0,CN,1571019848,54,34.57,105.89,60.69,0.79
400,Norman Wells,90,CA,1571019531,80,65.28,-126.83,30.2,3.36
401,Sao Joao da Barra,0,BR,1571019526,82,-21.64,-41.05,73.89,22.12
402,Caravelas,0,BR,1571019557,91,-17.73,-39.27,68.61,4.13
403,Kokstad,56,ZA,1571019849,91,-30.55,29.42,46.54,5.06
404,Vardo,1,US,1571019849,58,39.62,-77.74,53.6,3.36
405,Ancud,0,CL,1571019849,65,-41.87,-73.83,46.4,10.29
406,Matagami,100,NG,1571019850,76,9.67,8.4,69.13,3.65
407,Hammerfest,40,NO,1571019850,92,70.66,23.68,28.4,5.82
408,Svobodnyy,75,RU,1571019850,86,53.85,40.53,46.0,1.99
409,Rosarito,75,CO,1571019851,60,4.91,-75.23,75.2,6.93
410,Freeport,33,BS,1571019510,79,26.54,-78.7,78.44,14.91
411,Ayr,2,AU,1571019851,59,-19.58,147.4,82.0,11.27
412,Shancheng,100,CN,1571019852,95,26.9,117.17,61.77,3.11
413,Jiaozuo,100,CN,1571019852,58,35.21,113.25,54.97,15.66
414,Whitecourt,90,CA,1571019852,93,54.14,-115.68,39.2,2.24
415,Maryville,20,US,1571019853,54,35.76,-83.97,59.0,5.35
416,Corpus Christi,40,US,1571019853,83,27.8,-97.4,80.01,5.82
417,Kavaratti,100,IN,1571019504,74,10.57,72.64,83.16,9.61
418,Steamboat Springs,1,US,1571019853,32,40.48,-106.83,46.4,3.79
419,Dobromir,75,BG,1571019854,100,42.95,27.29,57.0,2.24
420,Casper,1,US,1571019854,33,42.87,-106.31,46.99,5.82
421,Sitka,0,US,1571019468,56,37.17,-99.65,55.99,11.01
422,Iwanai,99,JP,1571019855,48,42.97,140.51,53.78,4.32
423,Sistranda,20,NO,1571019855,74,63.73,8.83,42.01,3.36
424,Serenje,5,ZM,1571019855,65,-13.23,30.22,64.42,3.88
425,Saint-Marc,2,HT,1571019856,90,19.1,-72.7,72.23,4.25
426,Hanumangarh,28,IN,1571019856,28,29.58,74.33,83.34,6.55
427,Kosa,20,JP,1571019498,60,32.67,130.82,71.6,4.7
428,Huarmey,25,PE,1571019856,81,-10.07,-78.15,59.32,0.75
429,Cabo San Lucas,90,MX,1571019857,88,22.89,-109.91,81.0,11.41
430,Belmonte,100,PT,1571019490,79,40.36,-7.35,60.01,9.6
431,Dangtu,75,CN,1571019857,64,31.57,118.49,73.0,11.18
432,Longhua,100,CN,1571019857,88,29.21,106.21,66.99,0.55
433,Yankton,1,US,1571019858,81,42.87,-97.4,39.0,9.17
434,Launceston,38,AU,1571019591,48,-41.43,147.14,66.2,16.11
435,Thunder Bay,20,CA,1571019594,91,48.41,-89.26,35.01,5.82
436,Koshurnikovo,91,RU,1571019859,59,54.3,93.39,41.22,3.62
437,Saumur,87,FR,1571019859,93,47.26,-0.08,62.01,2.24
438,Bichena,36,ET,1571019859,84,10.45,38.2,48.06,6.42
439,Victor Harbor,75,AU,1571019860,67,-35.55,138.62,66.99,10.29
440,Okhotsk,74,RU,1571019479,58,59.36,143.24,21.45,17.96
441,Shu,80,KZ,1571019860,25,43.6,73.76,60.87,7.96
442,Ossora,27,RU,1571019860,47,59.24,163.07,40.39,9.83
443,Espanola,98,CA,1571019861,92,46.27,-81.77,42.01,7.0
444,Antalaha,0,MG,1571019534,80,-14.9,50.28,75.43,12.99
445,Baykit,100,RU,1571019552,92,61.68,96.39,32.47,2.74
446,Aripuana,85,BR,1571019861,79,-9.17,-60.63,75.63,2.16
447,Labuhan,36,ID,1571019862,38,-2.54,115.51,95.67,3.07
448,Payo,41,ID,1571019862,35,-3.75,103.64,85.77,5.48
449,Chumikan,66,RU,1571019862,39,54.72,135.31,30.87,17.22
450,Troitskoye,50,RU,1571019862,67,52.98,84.68,53.13,6.39
451,Atambua,29,ID,1571019863,41,-9.11,124.89,87.13,5.82
452,Honningsvag,95,NO,1571019863,61,70.98,25.97,38.08,5.51
453,Arman,78,RU,1571019466,47,59.7,150.17,27.07,8.42
454,Herat,0,AF,1571019864,50,34.35,62.22,55.4,9.17
455,Mastic Beach,90,US,1571019864,82,40.77,-72.85,61.0,8.23
456,San Juan,100,AR,1571019864,48,-31.54,-68.53,57.07,14.48
457,Auki,0,NG,1571019560,77,12.18,6.51,75.02,5.89
458,Bima,81,ID,1571019865,25,-8.45,118.73,95.9,6.49
459,Mbigou,99,GA,1571019865,99,-1.9,11.91,68.54,4.22
460,Nepa Nagar,0,IN,1571019865,61,21.47,76.4,75.24,3.58
461,Horsham,56,AU,1571019866,58,-36.71,142.2,67.14,8.38
462,Atascadero,1,US,1571019866,93,35.49,-120.67,57.2,4.11
463,Vechta,40,DE,1571019866,82,52.73,8.29,59.0,11.41
464,Limbang,75,BN,1571019867,62,4.75,115.01,87.8,3.36
465,Bluefield,1,US,1571019867,54,37.27,-81.22,57.2,4.7
466,Canutama,100,BR,1571019867,92,-6.53,-64.38,73.9,0.57
467,Mala,15,PE,1571019868,76,-12.66,-76.63,55.9,1.83
468,Pudozh,99,RU,1571019587,88,61.81,36.54,37.42,7.77
469,Khandyga,100,RU,1571019868,83,62.65,135.58,18.45,2.99
470,Gebre Guracha,94,ET,1571019868,75,9.8,38.4,54.34,3.7
471,Sept-Iles,90,CA,1571019869,87,50.2,-66.38,48.2,2.24
472,Shache,0,CN,1571019869,89,38.42,77.24,55.0,6.87
473,Mingyue,0,CN,1571019869,30,43.11,128.91,40.86,11.54
474,Paita,20,PE,1571019870,80,-5.09,-81.11,62.56,8.79
475,Hamilton,75,CA,1571019870,58,43.26,-79.87,60.01,20.8
476,Muroto,20,JP,1571019467,41,33.37,134.14,78.8,3.36
477,Matara,31,BI,1571019577,81,-3.48,29.48,59.67,3.85
478,Dakar,20,SN,1571019532,88,14.69,-17.45,78.8,3.36
479,Cam Ranh,20,VN,1571019871,62,11.92,109.15,87.8,9.17
480,Mananjary,78,MG,1571019871,84,-19.16,46.8,60.46,2.64
481,Kalmunai,90,LK,1571019533,76,7.42,81.82,82.24,8.55
482,Leeton,97,AU,1571019871,19,-34.55,146.4,82.4,12.75
483,Shaunavon,100,CA,1571019872,70,49.65,-108.41,40.24,7.61
484,Salina Cruz,62,MX,1571019872,76,16.18,-95.2,82.81,35.61
485,Kiama,0,AU,1571019873,46,-34.67,150.86,71.6,6.93
486,Jawad,0,IN,1571019873,52,24.6,74.86,76.96,2.84
487,Roald,0,NO,1571019498,100,62.58,6.12,39.0,5.82
488,Acapulco,75,MX,1571019874,83,16.86,-99.88,84.2,11.41
489,Baton Rouge,1,US,1571019874,68,30.45,-91.15,73.4,6.93
490,Salym,100,RU,1571019875,92,60.06,71.48,44.49,8.74
491,Dekar,0,BW,1571019875,28,-21.53,21.93,67.26,5.66
492,Dubbo,53,AU,1571019875,19,-32.25,148.6,80.6,11.41
493,Marystown,41,CA,1571019514,2,47.17,-55.16,53.01,15.37
494,Jiayuguan,10,CN,1571019876,25,39.77,98.29,47.23,14.47
495,Ust-Kuyga,39,RU,1571019876,93,70.0,135.55,9.59,5.22
496,Saint-Francois,0,FR,1571019563,87,46.42,3.91,55.99,3.36
497,Faya,79,SA,1571019536,63,18.39,42.45,62.6,7.67
498,Souillac,0,FR,1571019877,77,45.6,-0.6,66.2,18.34
499,Baoshan,75,CN,1571019877,64,31.41,121.49,80.01,8.95
500,Zholymbet,100,KZ,1571019877,63,51.74,71.71,49.87,9.82
501,Seljord,100,NO,1571019877,97,59.48,8.63,36.45,5.87
502,Thinadhoo,92,MV,1571019878,78,0.53,72.93,82.13,8.75
503,Nizwa,0,OM,1571019878,41,22.93,57.53,73.04,4.46
504,Puerto Baquerizo Moreno,100,EC,1571019465,86,-0.9,-89.6,67.8,11.66
505,La Romana,40,DO,1571019879,94,18.43,-68.97,75.2,4.78
506,Abu Dhabi,0,AE,1571019879,45,24.47,54.37,84.2,10.29
507,Petropavlovsk-Kamchatskiy,2,RU,1571019879,39,53.05,158.65,46.4,15.66
508,Kjopsvik,7,NO,1571019879,100,68.1,16.37,37.0,10.29
509,Balikpapan,92,ID,1571019880,61,-1.24,116.86,88.09,2.99
510,Novobelokatay,99,RU,1571019880,88,55.7,58.96,42.13,13.37
511,Syamzha,100,RU,1571019880,89,60.02,41.06,40.32,9.51
512,Parana,8,BR,1571019881,85,-7.52,-72.89,70.02,2.06
513,Kabakovo,90,RU,1571019881,89,54.54,56.15,43.74,13.78
514,San Quintin,98,PH,1571019474,60,17.54,120.52,86.83,2.6
515,Bonthe,98,SL,1571019468,87,7.53,-12.5,76.57,2.76
516,Goundam,0,ML,1571019882,38,16.42,-3.66,88.72,8.1
517,Grevena,0,GR,1571019882,100,40.09,21.43,57.0,1.12
518,Belaya Gora,100,RU,1571019882,93,68.54,146.19,17.44,17.67
519,Abha,100,SA,1571019435,63,18.22,42.5,62.6,1.01
520,Kieta,100,PG,1571019883,70,-6.22,155.63,83.28,6.5
521,Sydney,40,AU,1571019883,49,-33.85,151.22,77.0,13.87
522,Watrous,98,CA,1571019883,47,51.67,-105.46,35.98,3.31
523,Matay,0,EG,1571019884,88,28.42,30.79,66.52,9.67
524,Carauari,100,BR,1571019884,70,-4.88,-66.9,78.71,0.28
525,Njeru,100,UG,1571019884,98,0.43,33.15,63.41,1.35
526,Sartell,1,US,1571019884,80,45.62,-94.21,37.4,6.93
527,Bongandanga,15,CD,1571019885,85,1.51,21.07,68.29,0.52
528,Sungairaya,37,ID,1571019885,56,0.7,108.9,88.39,4.44
529,Caxias,97,BR,1571019885,55,-4.87,-43.35,86.0,8.05
530,Jimo,88,CN,1571019886,44,36.39,120.46,66.0,20.13
531,Atasu,100,KZ,1571019886,52,48.68,71.64,52.45,12.46
532,Andreapol,48,RU,1571019886,98,56.65,32.27,40.23,4.55
533,Lithakia,20,GR,1571019887,88,37.72,20.83,66.99,10.17
534,Miraflores,0,PE,1571019887,54,-16.39,-71.52,53.6,3.36
535,Kingman,1,US,1571019887,11,35.19,-114.05,80.01,4.7
536,Puno,90,PE,1571019887,93,-15.84,-70.03,42.8,9.17
537,Tual,0,ID,1571019888,70,-5.67,132.75,82.74,9.69
538,Itarema,29,BR,1571019513,76,-2.92,-39.92,77.29,11.09
539,Lima,90,PE,1571019888,77,-12.06,-77.04,62.6,8.05
540,Kirakira,92,SB,1571019889,79,-10.46,161.92,81.37,3.09
541,Svetlaya,32,RU,1571019889,32,46.54,138.33,45.72,10.75
542,Kihei,20,US,1571019890,48,20.76,-156.45,87.8,23.04
543,High Valleyfield,75,GB,1571019890,100,56.06,-3.6,46.4,5.82
544,Teknaf,23,BD,1571019890,78,20.86,92.31,83.59,2.0
545,Kota Kinabalu,75,MY,1571019891,70,5.98,116.07,88.0,4.7
546,Tyup,0,KG,1571019891,51,42.73,78.36,41.61,1.61
547,Brae,38,GB,1571019891,93,60.4,-1.35,46.4,2.45
548,Muros,75,ES,1571019604,100,42.77,-9.06,57.99,6.93
549,Sungaipenuh,99,ID,1571019892,56,-2.08,101.38,75.4,3.25
550,Pedroso,95,BR,1571019892,68,-24.13,-48.44,70.5,1.97
551,Livingston,90,US,1571019892,67,40.8,-74.31,63.0,3.96
552,Pameungpeuk,86,ID,1571019893,62,-7.63,107.73,79.41,10.21
553,Morant Bay,100,JM,1571019893,93,17.88,-76.41,70.88,1.41
554,Arvika,100,SE,1571019893,100,59.65,12.59,46.0,8.05
555,Sarangani,4,PH,1571019893,71,5.4,125.46,82.89,4.64
556,Xichang,99,CN,1571019894,92,27.88,102.25,48.04,3.83
